<?xml version="1.0" encoding="UTF-8" standalone="no" ?>
<gpx xmlns="http://www.topografix.com/GPX/1/1" creator="JpRNavMaster"
version="1.1" xmlns:xsi="http://www.w3.org/2001/XMLSchema-instance" 
xsi:schemaLocation="http://www.topografix.com/GPX/1/1
http://www.topografix.com/GPX/1/1/gpx.xsd">
<wpt lat="44.19280" lon="0.64667">
 <name>LFBA/NA</name>
</wpt>
<wpt lat="44.24500" lon="0.64333">
 <name>LFBA/N</name>
</wpt>
<wpt lat="44.22860" lon="0.35194">
 <name>LFBA/W</name>
</wpt>
<wpt lat="44.06390" lon="0.65139">
 <name>LFBA/S</name>
</wpt>
<wpt lat="44.11140" lon="0.53139">
 <name>LFBA/WB</name>
</wpt>
<wpt lat="44.13500" lon="0.66056">
 <name>LFBA/SA</name>
</wpt>
<wpt lat="44.21420" lon="0.48472">
 <name>LFBA/WA</name>
</wpt>
<wpt lat="43.48000" lon="5.48528">
 <name>LFMA/AE</name>
</wpt>
<wpt lat="43.44500" lon="5.37222">
 <name>LFMA/AS</name>
</wpt>
<wpt lat="43.51610" lon="5.31194">
 <name>LFMA/AW</name>
</wpt>
<wpt lat="43.53580" lon="5.39944">
 <name>LFMA/AR</name>
</wpt>
<wpt lat="43.57250" lon="5.39194">
 <name>LFMA/AT</name>
</wpt>
<wpt lat="43.56390" lon="5.33639">
 <name>LFMA/AN</name>
</wpt>
<wpt lat="41.73890" lon="8.65833">
 <name>LFKJ/SA</name>
</wpt>
<wpt lat="41.81030" lon="8.84833">
 <name>LFKJ/SEA</name>
</wpt>
<wpt lat="42.04720" lon="8.74722">
 <name>LFKJ/N</name>
</wpt>
<wpt lat="41.87560" lon="8.58806">
 <name>LFKJ/W</name>
</wpt>
<wpt lat="41.66190" lon="8.72333">
 <name>LFKJ/S</name>
</wpt>
<wpt lat="41.89720" lon="8.70472">
 <name>LFKJ/WA</name>
</wpt>
<wpt lat="41.85360" lon="8.79167">
 <name>LFKJ/SB</name>
</wpt>
<wpt lat="41.90420" lon="8.79917">
 <name>LFKJ/SC</name>
</wpt>
<wpt lat="41.96190" lon="8.72778">
 <name>LFKJ/NWA</name>
</wpt>
<wpt lat="42.10970" lon="9.11389">
 <name>LFKJ/NV</name>
</wpt>
<wpt lat="42.12110" lon="8.51639">
 <name>LFKJ/NW</name>
</wpt>
<wpt lat="42.01830" lon="8.89333">
 <name>LFKJ/NZ</name>
</wpt>
<wpt lat="49.92390" lon="2.75972">
 <name>LFAQ/SA</name>
</wpt>
<wpt lat="50.06560" lon="2.66222">
 <name>LFAQ/N</name>
</wpt>
<wpt lat="49.87390" lon="2.83472">
 <name>LFAQ/S</name>
</wpt>
<wpt lat="49.90560" lon="2.63250">
 <name>LFAQ/WA</name>
</wpt>
<wpt lat="49.88690" lon="2.51167">
 <name>LFAQ/W</name>
</wpt>
<wpt lat="50.01610" lon="2.67333">
 <name>LFAQ/NA</name>
</wpt>
<wpt lat="44.74640" lon="-1.11806">
 <name>LFCD/N</name>
</wpt>
<wpt lat="44.69170" lon="-1.04556">
 <name>LFCD/SE</name>
</wpt>
<wpt lat="46.14190" lon="6.26111">
 <name>LFLI/R</name>
</wpt>
<wpt lat="47.44080" lon="-0.21222">
 <name>LFJR/SE</name>
</wpt>
<wpt lat="47.65500" lon="-0.27278">
 <name>LFJR/N</name>
</wpt>
<wpt lat="47.41750" lon="-0.50556">
 <name>LFJR/SW</name>
</wpt>
<wpt lat="47.54110" lon="-0.34139">
 <name>LFJR/S</name>
</wpt>
<wpt lat="47.67810" lon="-0.48667">
 <name>LFJR/NW</name>
</wpt>
<wpt lat="45.79360" lon="0.29361">
 <name>LFBU/NE</name>
</wpt>
<wpt lat="45.70250" lon="0.26472">
 <name>LFBU/SE</name>
</wpt>
<wpt lat="45.70000" lon="0.08806">
 <name>LFBU/SW</name>
</wpt>
<wpt lat="45.77750" lon="0.19222">
 <name>LFBU/NA</name>
</wpt>
<wpt lat="45.81060" lon="0.19250">
 <name>LFBU/NW</name>
</wpt>
<wpt lat="45.66110" lon="0.25944">
 <name>LFBU/S</name>
</wpt>
<wpt lat="45.81670" lon="6.02028">
 <name>LFLP/ALBY</name>
</wpt>
<wpt lat="46.04470" lon="6.25750">
 <name>LFLP/NE</name>
</wpt>
<wpt lat="46.03440" lon="6.10722">
 <name>LFLP/N</name>
</wpt>
<wpt lat="45.93530" lon="6.16806">
 <name>LFLP/E</name>
</wpt>
<wpt lat="45.89690" lon="6.08778">
 <name>LFLP/HS</name>
</wpt>
<wpt lat="46.00440" lon="6.13167">
 <name>LFLP/NA</name>
</wpt>
<wpt lat="45.96670" lon="6.03333">
 <name>LFLP/NW</name>
</wpt>
<wpt lat="45.93330" lon="6.12833">
 <name>LFLP/HN</name>
</wpt>
<wpt lat="45.84420" lon="6.17417">
 <name>LFLP/SJ</name>
</wpt>
<wpt lat="45.87580" lon="6.08778">
 <name>LFLP/SA</name>
</wpt>
<wpt lat="45.92140" lon="6.11583">
 <name>LFLP/HM</name>
</wpt>
<wpt lat="45.84310" lon="5.77917">
 <name>LFLP/WC</name>
</wpt>
<wpt lat="44.59860" lon="-1.21111">
 <name>LFCH/W</name>
</wpt>
<wpt lat="44.64360" lon="-1.04833">
 <name>LFCH/NE</name>
</wpt>
<wpt lat="44.63330" lon="-1.00556">
 <name>LFCH/E</name>
</wpt>
<wpt lat="44.05420" lon="5.05139">
 <name>LFMV/NE</name>
</wpt>
<wpt lat="43.92220" lon="4.74167">
 <name>LFMV/W</name>
</wpt>
<wpt lat="43.85830" lon="4.77917">
 <name>LFMV/SW</name>
</wpt>
<wpt lat="43.98750" lon="4.82222">
 <name>LFMV/NA</name>
</wpt>
<wpt lat="43.92030" lon="5.05694">
 <name>LFMV/E</name>
</wpt>
<wpt lat="44.05140" lon="4.78333">
 <name>LFMV/NW</name>
</wpt>
<wpt lat="43.85830" lon="4.98750">
 <name>LFMV/SE</name>
</wpt>
<wpt lat="47.06580" lon="2.36167">
 <name>LFOA/BOU</name>
</wpt>
<wpt lat="47.12720" lon="2.77917">
 <name>LFOA/NE</name>
</wpt>
<wpt lat="46.88670" lon="2.57111">
 <name>LFOA/DUN</name>
</wpt>
<wpt lat="47.14940" lon="2.42889">
 <name>LFOA/W</name>
</wpt>
<wpt lat="46.92420" lon="2.58639">
 <name>LFOA/S</name>
</wpt>
<wpt lat="47.19690" lon="2.57389">
 <name>LFOA/N</name>
</wpt>
<wpt lat="46.99000" lon="2.82944">
 <name>LFOA/SE</name>
</wpt>
<wpt lat="47.14360" lon="2.56194">
 <name>LFOA/W1</name>
</wpt>
<wpt lat="47.06000" lon="2.42722">
 <name>LFOA/BS</name>
</wpt>
<wpt lat="47.09810" lon="2.46750">
 <name>LFOA/BN</name>
</wpt>
<wpt lat="42.91810" lon="0.63694">
 <name>LFCB/CIE</name>
</wpt>
<wpt lat="47.61920" lon="7.57250">
 <name>LFSB/E</name>
</wpt>
<wpt lat="47.63250" lon="7.23583">
 <name>LFSB/W</name>
</wpt>
<wpt lat="47.60000" lon="7.38139">
 <name>LFSB/WA</name>
</wpt>
<wpt lat="47.70750" lon="7.58083">
 <name>LFSB/NE</name>
</wpt>
<wpt lat="47.81500" lon="7.54278">
 <name>LFSB/N</name>
</wpt>
<wpt lat="47.52670" lon="7.71472">
 <name>LFSB/S</name>
</wpt>
<wpt lat="47.58890" lon="7.49528">
 <name>LFSB/WB</name>
</wpt>
<wpt lat="42.52220" lon="9.44389">
 <name>LFKB/SA</name>
</wpt>
<wpt lat="42.60000" lon="9.36611">
 <name>LFKB/W</name>
</wpt>
<wpt lat="42.67220" lon="9.38278">
 <name>LFKB/NW</name>
</wpt>
<wpt lat="42.61940" lon="9.43556">
 <name>LFKB/NA</name>
</wpt>
<wpt lat="42.33890" lon="9.54111">
 <name>LFKB/S</name>
</wpt>
<wpt lat="42.86110" lon="9.48083">
 <name>LFKB/N1</name>
</wpt>
<wpt lat="42.70280" lon="9.46333">
 <name>LFKB/N</name>
</wpt>
<wpt lat="42.50830" lon="9.37167">
 <name>LFKB/SW</name>
</wpt>
<wpt lat="49.32390" lon="2.08000">
 <name>LFOB/SW</name>
</wpt>
<wpt lat="49.52360" lon="2.18750">
 <name>LFOB/N</name>
</wpt>
<wpt lat="49.39780" lon="2.12889">
 <name>LFOB/S</name>
</wpt>
<wpt lat="49.42780" lon="2.03972">
 <name>LFOB/WB</name>
</wpt>
<wpt lat="49.32920" lon="2.20000">
 <name>LFOB/SE</name>
</wpt>
<wpt lat="49.41940" lon="1.93750">
 <name>LFOB/W</name>
</wpt>
<wpt lat="44.91060" lon="0.60667">
 <name>LFBE/NE</name>
</wpt>
<wpt lat="44.65170" lon="0.60000">
 <name>LFBE/S</name>
</wpt>
<wpt lat="44.77530" lon="0.52306">
 <name>LFBE/SA</name>
</wpt>
<wpt lat="44.87560" lon="0.54972">
 <name>LFBE/NA</name>
</wpt>
<wpt lat="44.93140" lon="0.43028">
 <name>LFBE/NW</name>
</wpt>
<wpt lat="44.73030" lon="0.60722">
 <name>LFBE/SE</name>
</wpt>
<wpt lat="44.70190" lon="0.42000">
 <name>LFBE/SW</name>
</wpt>
<wpt lat="43.27060" lon="3.50583">
 <name>LFMU/SE</name>
</wpt>
<wpt lat="43.33110" lon="3.04167">
 <name>LFMU/CG</name>
</wpt>
<wpt lat="43.21280" lon="3.24000">
 <name>LFMU/AD</name>
</wpt>
<wpt lat="43.42060" lon="3.23694">
 <name>LFMU/NB</name>
</wpt>
<wpt lat="43.47470" lon="3.44528">
 <name>LFMU/PZ</name>
</wpt>
<wpt lat="43.44250" lon="3.57611">
 <name>LFMU/MZ</name>
</wpt>
<wpt lat="43.54610" lon="-1.19500">
 <name>LFBZ/BG</name>
</wpt>
<wpt lat="43.36780" lon="-1.42250">
 <name>LFBZ/SE</name>
</wpt>
<wpt lat="43.51970" lon="-1.40250">
 <name>LFBZ/NE</name>
</wpt>
<wpt lat="43.41720" lon="-1.49472">
 <name>LFBZ/S</name>
</wpt>
<wpt lat="43.53030" lon="-1.52361">
 <name>LFBZ/NA</name>
</wpt>
<wpt lat="43.38500" lon="-1.30500">
 <name>LFBZ/SH</name>
</wpt>
<wpt lat="43.46670" lon="-1.28694">
 <name>LFBZ/E</name>
</wpt>
<wpt lat="43.39940" lon="-1.66444">
 <name>LFBZ/SW</name>
</wpt>
<wpt lat="43.65580" lon="-1.44833">
 <name>LFBZ/NC</name>
</wpt>
<wpt lat="43.49280" lon="-1.55250">
 <name>LFBZ/NP</name>
</wpt>
<wpt lat="43.43690" lon="-1.59694">
 <name>LFBZ/SB</name>
</wpt>
<wpt lat="44.70420" lon="-0.77000">
 <name>LFBD/SW</name>
</wpt>
<wpt lat="45.02890" lon="-0.79694">
 <name>LFBD/N</name>
</wpt>
<wpt lat="44.89360" lon="-0.66889">
 <name>LFBD/EA</name>
</wpt>
<wpt lat="44.74580" lon="-0.50417">
 <name>LFBD/SE</name>
</wpt>
<wpt lat="45.00830" lon="-0.61250">
 <name>LFBD/NE</name>
</wpt>
<wpt lat="44.71670" lon="-0.69028">
 <name>LFBD/S</name>
</wpt>
<wpt lat="44.90750" lon="-0.74722">
 <name>LFBD/NA</name>
</wpt>
<wpt lat="44.97560" lon="-0.88083">
 <name>LFBD/NW</name>
</wpt>
<wpt lat="44.76970" lon="-0.77111">
 <name>LFBD/OA</name>
</wpt>
<wpt lat="44.77500" lon="-0.69167">
 <name>LFBD/SA</name>
</wpt>
<wpt lat="48.28330" lon="-4.13333">
 <name>LFRB/LF</name>
</wpt>
<wpt lat="48.50420" lon="-4.42278">
 <name>LFRB/PA</name>
</wpt>
<wpt lat="48.37000" lon="-4.26111">
 <name>LFRB/SG</name>
</wpt>
<wpt lat="48.56670" lon="-4.52833">
 <name>LFRB/NG</name>
</wpt>
<wpt lat="48.36500" lon="-4.78361">
 <name>LFRB/LC</name>
</wpt>
<wpt lat="48.40670" lon="-4.37417">
 <name>LFRB/K</name>
</wpt>
<wpt lat="48.41670" lon="-4.20000">
 <name>LFRB/SWL</name>
</wpt>
<wpt lat="48.42970" lon="-4.61722">
 <name>LFRB/WG</name>
</wpt>
<wpt lat="45.14720" lon="1.48528">
 <name>LFSL/N</name>
</wpt>
<wpt lat="45.09860" lon="1.52000">
 <name>LFSL/NA</name>
</wpt>
<wpt lat="44.90170" lon="1.50111">
 <name>LFSL/S</name>
</wpt>
<wpt lat="44.99060" lon="1.52667">
 <name>LFSL/SA</name>
</wpt>
<wpt lat="49.09920" lon="-0.51222">
 <name>LFRK/SC</name>
</wpt>
<wpt lat="49.22390" lon="-0.27556">
 <name>LFRK/EK</name>
</wpt>
<wpt lat="48.99390" lon="-0.47556">
 <name>LFRK/SK</name>
</wpt>
<wpt lat="49.07810" lon="-0.64139">
 <name>LFRK/SW</name>
</wpt>
<wpt lat="49.19360" lon="-0.86444">
 <name>LFRK/W</name>
</wpt>
<wpt lat="49.21190" lon="-0.40333">
 <name>LFRK/NK</name>
</wpt>
<wpt lat="49.14080" lon="-0.25389">
 <name>LFRK/EY</name>
</wpt>
<wpt lat="50.88670" lon="1.99944">
 <name>LFAC/SA</name>
</wpt>
<wpt lat="50.82500" lon="2.05694">
 <name>LFAC/S</name>
</wpt>
<wpt lat="50.95890" lon="2.18528">
 <name>LFAC/E</name>
</wpt>
<wpt lat="50.92560" lon="1.70667">
 <name>LFAC/W</name>
</wpt>
<wpt lat="50.97560" lon="1.90306">
 <name>LFAC/N</name>
</wpt>
<wpt lat="50.97000" lon="1.84694">
 <name>LFAC/PC</name>
</wpt>
<wpt lat="42.54110" lon="8.79917">
 <name>LFKC/EA</name>
</wpt>
<wpt lat="42.92750" lon="8.94167">
 <name>LFKC/MB</name>
</wpt>
<wpt lat="42.64440" lon="8.93167">
 <name>LFKC/IR</name>
</wpt>
<wpt lat="42.58310" lon="8.72444">
 <name>LFKC/N</name>
</wpt>
<wpt lat="43.07970" lon="7.79306">
 <name>LFKC/MER</name>
</wpt>
<wpt lat="42.56060" lon="8.71667">
 <name>LFKC/W</name>
</wpt>
<wpt lat="42.61220" lon="8.85222">
 <name>LFKC/E</name>
</wpt>
<wpt lat="42.51190" lon="8.67333">
 <name>LFKC/S</name>
</wpt>
<wpt lat="43.38810" lon="8.95806">
 <name>LFKC/TOR</name>
</wpt>
<wpt lat="42.61920" lon="8.61361">
 <name>LFKC/WC</name>
</wpt>
<wpt lat="43.53530" lon="7.14500">
 <name>LFMD/SB</name>
</wpt>
<wpt lat="43.48890" lon="7.04694">
 <name>LFMD/SA</name>
</wpt>
<wpt lat="43.50750" lon="7.01667">
 <name>LFMD/SV</name>
</wpt>
<wpt lat="43.39830" lon="6.85556">
 <name>LFMD/DR</name>
</wpt>
<wpt lat="43.43580" lon="6.93500">
 <name>LFMD/SW</name>
</wpt>
<wpt lat="43.75000" lon="7.18889">
 <name>LFMD/NA</name>
</wpt>
<wpt lat="43.66690" lon="7.14556">
 <name>LFMD/WA</name>
</wpt>
<wpt lat="43.66000" lon="6.98000">
 <name>LFMD/EW</name>
</wpt>
<wpt lat="43.54310" lon="6.96833">
 <name>LFMD/HE</name>
</wpt>
<wpt lat="43.55390" lon="6.79389">
 <name>LFMD/WL</name>
</wpt>
<wpt lat="43.58580" lon="6.99778">
 <name>LFMD/LC</name>
</wpt>
<wpt lat="43.52110" lon="6.80667">
 <name>LFMD/WD</name>
</wpt>
<wpt lat="43.63280" lon="6.85306">
 <name>LFMD/N</name>
</wpt>
<wpt lat="49.71670" lon="-1.95000">
 <name>EGJA/HAG</name>
</wpt>
<wpt lat="43.25420" lon="2.17750">
 <name>LFMK/WA</name>
</wpt>
<wpt lat="43.18500" lon="2.55611">
 <name>LFMK/ES</name>
</wpt>
<wpt lat="43.26860" lon="2.40056">
 <name>LFMK/NC</name>
</wpt>
<wpt lat="43.15560" lon="2.30583">
 <name>LFMK/SF</name>
</wpt>
<wpt lat="43.05440" lon="2.21667">
 <name>LFMK/S</name>
</wpt>
<wpt lat="43.19360" lon="2.05500">
 <name>LFMK/WP</name>
</wpt>
<wpt lat="43.28220" lon="2.58778">
 <name>LFMK/EN</name>
</wpt>
<wpt lat="43.19030" lon="2.14194">
 <name>LFMK/WM</name>
</wpt>
<wpt lat="43.28220" lon="2.08639">
 <name>LFMK/W</name>
</wpt>
<wpt lat="44.03640" lon="5.09472">
 <name>LFNH/NE</name>
</wpt>
<wpt lat="44.64360" lon="-1.04833">
 <name>LFBC/NE</name>
</wpt>
<wpt lat="44.48720" lon="-1.07111">
 <name>LFBC/B</name>
</wpt>
<wpt lat="44.53060" lon="-1.16167">
 <name>LFBC/C</name>
</wpt>
<wpt lat="44.63330" lon="-1.00556">
 <name>LFBC/E</name>
</wpt>
<wpt lat="44.55420" lon="-1.15278">
 <name>LFBC/A</name>
</wpt>
<wpt lat="44.59860" lon="-1.21111">
 <name>LFBC/W</name>
</wpt>
<wpt lat="44.57500" lon="-1.22500">
 <name>LFBC/WS</name>
</wpt>
<wpt lat="48.67080" lon="4.17333">
 <name>LFOK/S</name>
</wpt>
<wpt lat="48.74750" lon="4.06222">
 <name>LFOK/WA</name>
</wpt>
<wpt lat="48.91190" lon="4.28611">
 <name>LFOK/N</name>
</wpt>
<wpt lat="48.73500" lon="4.19222">
 <name>LFOK/SW</name>
</wpt>
<wpt lat="48.72720" lon="3.90000">
 <name>LFOK/W</name>
</wpt>
<wpt lat="48.82390" lon="4.22417">
 <name>LFOK/N1</name>
</wpt>
<wpt lat="45.81670" lon="6.02028">
 <name>LFLB/ALBY</name>
</wpt>
<wpt lat="45.75810" lon="5.70556">
 <name>LFLB/WB</name>
</wpt>
<wpt lat="45.80580" lon="5.82889">
 <name>LFLB/NL</name>
</wpt>
<wpt lat="45.69280" lon="5.84694">
 <name>LFLB/WA</name>
</wpt>
<wpt lat="45.55560" lon="5.83111">
 <name>LFLB/SW</name>
</wpt>
<wpt lat="45.71420" lon="5.92389">
 <name>LFLB/EY</name>
</wpt>
<wpt lat="45.55440" lon="5.95500">
 <name>LFLB/SE</name>
</wpt>
<wpt lat="45.59810" lon="5.63167">
 <name>LFLB/WG</name>
</wpt>
<wpt lat="45.84310" lon="5.77917">
 <name>LFLB/WC</name>
</wpt>
<wpt lat="48.01030" lon="1.24361">
 <name>LFOC/SW</name>
</wpt>
<wpt lat="48.14670" lon="1.35056">
 <name>LFOC/NA</name>
</wpt>
<wpt lat="47.98030" lon="1.33750">
 <name>LFOC/SA</name>
</wpt>
<wpt lat="48.14780" lon="1.26722">
 <name>LFOC/NW</name>
</wpt>
<wpt lat="48.09920" lon="1.51583">
 <name>LFOC/NE</name>
</wpt>
<wpt lat="47.96250" lon="1.42361">
 <name>LFOC/SE</name>
</wpt>
<wpt lat="46.74170" lon="1.83056">
 <name>LFLX/SE</name>
</wpt>
<wpt lat="46.91470" lon="1.59861">
 <name>LFLX/NW</name>
</wpt>
<wpt lat="46.69940" lon="1.58333">
 <name>LFLX/S</name>
</wpt>
<wpt lat="46.82190" lon="1.92500">
 <name>LFLX/E</name>
</wpt>
<wpt lat="46.97280" lon="1.60000">
 <name>LFLX/N</name>
</wpt>
<wpt lat="46.93860" lon="1.99722">
 <name>LFLX/NE</name>
</wpt>
<wpt lat="46.85060" lon="1.53028">
 <name>LFLX/W</name>
</wpt>
<wpt lat="49.69810" lon="-1.47306">
 <name>LFRC/N</name>
</wpt>
<wpt lat="49.59860" lon="-1.59500">
 <name>LFRC/WC</name>
</wpt>
<wpt lat="49.57720" lon="-1.46250">
 <name>LFRC/SB</name>
</wpt>
<wpt lat="49.57360" lon="-1.27500">
 <name>LFRC/SC</name>
</wpt>
<wpt lat="49.68250" lon="-1.27194">
 <name>LFRC/EC</name>
</wpt>
<wpt lat="49.50970" lon="-1.47167">
 <name>LFRC/SU</name>
</wpt>
<wpt lat="45.89530" lon="3.15389">
 <name>LFLC/N</name>
</wpt>
<wpt lat="45.72250" lon="3.33722">
 <name>LFLC/SB</name>
</wpt>
<wpt lat="45.75470" lon="3.53833">
 <name>LFLC/SE</name>
</wpt>
<wpt lat="45.65330" lon="3.16861">
 <name>LFLC/S</name>
</wpt>
<wpt lat="45.84140" lon="3.16028">
 <name>LFLC/NA</name>
</wpt>
<wpt lat="45.73440" lon="3.15306">
 <name>LFLC/SA</name>
</wpt>
<wpt lat="45.95970" lon="3.47417">
 <name>LFLC/NE</name>
</wpt>
<wpt lat="45.91420" lon="3.21694">
 <name>LFLC/NB</name>
</wpt>
<wpt lat="45.74670" lon="3.13667">
 <name>LFHCLE/HC</name>
</wpt>
<wpt lat="45.80560" lon="3.15111">
 <name>LFHCLE/HD</name>
</wpt>
<wpt lat="45.52360" lon="-0.29083">
 <name>LFBG/S</name>
</wpt>
<wpt lat="45.77220" lon="-0.42278">
 <name>LFBG/N</name>
</wpt>
<wpt lat="45.54170" lon="-0.44250">
 <name>LFBG/W2</name>
</wpt>
<wpt lat="45.65080" lon="-0.25250">
 <name>LFBG/E1</name>
</wpt>
<wpt lat="45.68560" lon="-0.39750">
 <name>LFBG/N1</name>
</wpt>
<wpt lat="45.62060" lon="-0.28222">
 <name>LFBG/S2</name>
</wpt>
<wpt lat="45.57690" lon="-0.30528">
 <name>LFBG/S1</name>
</wpt>
<wpt lat="45.61780" lon="-0.33278">
 <name>LFBG/W1</name>
</wpt>
<wpt lat="45.61720" lon="-0.21889">
 <name>LFBG/E2</name>
</wpt>
<wpt lat="49.43920" lon="2.79361">
 <name>LFAD/NA</name>
</wpt>
<wpt lat="49.44970" lon="2.78722">
 <name>LFAD/N</name>
</wpt>
<wpt lat="46.04440" lon="5.45611">
 <name>LFJD/W</name>
</wpt>
<wpt lat="45.44310" lon="6.64722">
 <name>LFLJ/N</name>
</wpt>
<wpt lat="45.40110" lon="6.64778">
 <name>LFLJ/C</name>
</wpt>
<wpt lat="45.42000" lon="6.67611">
 <name>LFLJ/E</name>
</wpt>
<wpt lat="45.48470" lon="6.52861">
 <name>LFLJ/W</name>
</wpt>
<wpt lat="45.40860" lon="6.61472">
 <name>LFLJ/L</name>
</wpt>
<wpt lat="49.18330" lon="2.46167">
 <name>LFPC/SW</name>
</wpt>
<wpt lat="49.20000" lon="2.53333">
 <name>LFPC/S</name>
</wpt>
<wpt lat="49.40220" lon="2.69778">
 <name>LFPC/NE</name>
</wpt>
<wpt lat="49.24860" lon="2.31722">
 <name>LFPC/W2</name>
</wpt>
<wpt lat="49.22310" lon="2.75056">
 <name>LFPC/SE</name>
</wpt>
<wpt lat="49.29280" lon="2.45639">
 <name>LFPC/NW</name>
</wpt>
<wpt lat="49.23110" lon="2.44306">
 <name>LFPC/W1</name>
</wpt>
<wpt lat="49.29810" lon="2.51972">
 <name>LFPC/N</name>
</wpt>
<wpt lat="43.29890" lon="6.18306">
 <name>LFTF/CN</name>
</wpt>
<wpt lat="43.23420" lon="6.28472">
 <name>LFTF/CO</name>
</wpt>
<wpt lat="43.18720" lon="5.90111">
 <name>LFTF/MC</name>
</wpt>
<wpt lat="43.19170" lon="6.28028">
 <name>LFTF/VC</name>
</wpt>
<wpt lat="43.19140" lon="6.03528">
 <name>LFTF/SL</name>
</wpt>
<wpt lat="43.29330" lon="6.15278">
 <name>LFTF/PV</name>
</wpt>
<wpt lat="43.33940" lon="6.12083">
 <name>LFTF/SA</name>
</wpt>
<wpt lat="43.40810" lon="5.95194">
 <name>LFTF/TV</name>
</wpt>
<wpt lat="43.87670" lon="-0.93361">
 <name>LFBY/NE</name>
</wpt>
<wpt lat="43.73390" lon="-1.10667">
 <name>LFBY/N</name>
</wpt>
<wpt lat="43.54670" lon="-1.19500">
 <name>LFBY/BG</name>
</wpt>
<wpt lat="43.63390" lon="-1.36056">
 <name>LFBY/W</name>
</wpt>
<wpt lat="43.64470" lon="-1.09972">
 <name>LFBY/S</name>
</wpt>
<wpt lat="43.73750" lon="-1.02306">
 <name>LFBY/NEA</name>
</wpt>
<wpt lat="44.03330" lon="-0.91667">
 <name>LFBY/MOR</name>
</wpt>
<wpt lat="43.52420" lon="-0.90972">
 <name>LFBY/SEA</name>
</wpt>
<wpt lat="43.64170" lon="-1.01972">
 <name>LFBY/E</name>
</wpt>
<wpt lat="43.49000" lon="-0.78556">
 <name>LFBY/SE</name>
</wpt>
<wpt lat="48.97610" lon="2.58417">
 <name>LFPG/S</name>
</wpt>
<wpt lat="49.01810" lon="2.56111">
 <name>LFPG/BD19</name>
</wpt>
<wpt lat="49.01610" lon="2.51861">
 <name>LFPG/EM</name>
</wpt>
<wpt lat="49.00030" lon="2.55167">
 <name>LFPG/UN</name>
</wpt>
<wpt lat="49.00250" lon="2.60250">
 <name>LFPG/P1</name>
</wpt>
<wpt lat="49.04670" lon="2.54639">
 <name>LFPG/N</name>
</wpt>
<wpt lat="49.08670" lon="2.55167">
 <name>LFPG/RH1</name>
</wpt>
<wpt lat="49.43920" lon="0.37278">
 <name>LFRG/NG</name>
</wpt>
<wpt lat="49.21470" lon="0.21611">
 <name>LFRG/SG</name>
</wpt>
<wpt lat="49.28560" lon="-0.10222">
 <name>LFRG/WG</name>
</wpt>
<wpt lat="49.36080" lon="0.49056">
 <name>LFRG/EG</name>
</wpt>
<wpt lat="49.27500" lon="0.19917">
 <name>LFRG/SD</name>
</wpt>
<wpt lat="49.33920" lon="0.04500">
 <name>LFRG/WD</name>
</wpt>
<wpt lat="49.43670" lon="0.27250">
 <name>LFRG/ED</name>
</wpt>
<wpt lat="47.42360" lon="5.17083">
 <name>LFSD/NB</name>
</wpt>
<wpt lat="47.44720" lon="4.91889">
 <name>LFSD/NA</name>
</wpt>
<wpt lat="47.04470" lon="4.99667">
 <name>LFSD/SA</name>
</wpt>
<wpt lat="47.08500" lon="5.24028">
 <name>LFSD/SB</name>
</wpt>
<wpt lat="47.51810" lon="5.15000">
 <name>LFSD/N</name>
</wpt>
<wpt lat="46.99170" lon="5.13611">
 <name>LFSD/SR</name>
</wpt>
<wpt lat="47.25420" lon="5.14222">
 <name>LFSD/E1</name>
</wpt>
<wpt lat="47.25170" lon="5.00639">
 <name>LFSD/W</name>
</wpt>
<wpt lat="47.23860" lon="5.21806">
 <name>LFSD/E</name>
</wpt>
<wpt lat="47.18330" lon="5.36667">
 <name>LFSD/SC</name>
</wpt>
<wpt lat="47.40420" lon="5.32500">
 <name>LFSD/NC</name>
</wpt>
<wpt lat="48.61890" lon="-2.02583">
 <name>LFRD/NBD</name>
</wpt>
<wpt lat="48.68780" lon="-2.31917">
 <name>LFRD/NWD</name>
</wpt>
<wpt lat="48.67690" lon="-2.07222">
 <name>LFRD/ND</name>
</wpt>
<wpt lat="48.60000" lon="-2.01278">
 <name>LFRD/LPD</name>
</wpt>
<wpt lat="48.57250" lon="-2.21472">
 <name>LFRD/WJD</name>
</wpt>
<wpt lat="48.52190" lon="-2.23278">
 <name>LFRD/SWD</name>
</wpt>
<wpt lat="48.53690" lon="-1.97306">
 <name>LFRD/ED</name>
</wpt>
<wpt lat="48.71140" lon="-1.84306">
 <name>LFRD/NED</name>
</wpt>
<wpt lat="47.12190" lon="5.38111">
 <name>LFGJ/N</name>
</wpt>
<wpt lat="46.94000" lon="5.15139">
 <name>LFGJ/W</name>
</wpt>
<wpt lat="47.02310" lon="5.48444">
 <name>LFGJ/S</name>
</wpt>
<wpt lat="46.88280" lon="5.25278">
 <name>LFGJ/SW</name>
</wpt>
<wpt lat="46.92220" lon="5.51389">
 <name>LFGJ/SE</name>
</wpt>
<wpt lat="49.19610" lon="5.54028">
 <name>LFQE/W1</name>
</wpt>
<wpt lat="49.20920" lon="5.73972">
 <name>LFQE/E</name>
</wpt>
<wpt lat="49.06000" lon="5.71194">
 <name>LFQE/S</name>
</wpt>
<wpt lat="49.23190" lon="5.60667">
 <name>LFQE/W</name>
</wpt>
<wpt lat="49.16110" lon="5.82389">
 <name>LFQE/E1</name>
</wpt>
<wpt lat="49.32780" lon="5.66833">
 <name>LFQE/N</name>
</wpt>
<wpt lat="49.01420" lon="1.24583">
 <name>LFOE/HS</name>
</wpt>
<wpt lat="49.06690" lon="1.17500">
 <name>LFOE/N</name>
</wpt>
<wpt lat="48.95000" lon="0.95000">
 <name>LFOE/WC</name>
</wpt>
<wpt lat="48.87500" lon="1.08333">
 <name>LFOE/WD</name>
</wpt>
<wpt lat="49.12610" lon="0.87028">
 <name>LFOE/EW</name>
</wpt>
<wpt lat="49.02190" lon="1.48750">
 <name>LFOE/EE</name>
</wpt>
<wpt lat="48.88750" lon="1.16667">
 <name>LFOE/S2</name>
</wpt>
<wpt lat="49.23780" lon="1.40472">
 <name>LFOE/EG</name>
</wpt>
<wpt lat="49.19330" lon="1.24861">
 <name>LFOE/EN</name>
</wpt>
<wpt lat="49.03690" lon="1.20417">
 <name>LFOE/HN</name>
</wpt>
<wpt lat="48.84720" lon="1.21667">
 <name>LFOE/WS</name>
</wpt>
<wpt lat="49.13610" lon="0.90278">
 <name>LFOE/WN</name>
</wpt>
<wpt lat="49.24720" lon="1.18056">
 <name>LFOE/EL</name>
</wpt>
<wpt lat="48.77890" lon="1.19444">
 <name>LFOE/ES</name>
</wpt>
<wpt lat="48.96170" lon="1.21222">
 <name>LFOE/S1</name>
</wpt>
<wpt lat="49.17780" lon="1.54444">
 <name>LFOE/ET</name>
</wpt>
<wpt lat="41.39220" lon="9.09861">
 <name>LFKF/SAF</name>
</wpt>
<wpt lat="41.56470" lon="9.04139">
 <name>LFKF/NWF</name>
</wpt>
<wpt lat="41.66670" lon="9.20833">
 <name>LFKF/NF</name>
</wpt>
<wpt lat="41.38690" lon="9.14444">
 <name>LFKF/SF</name>
</wpt>
<wpt lat="41.46420" lon="9.27722">
 <name>LFKF/EF</name>
</wpt>
<wpt lat="41.47530" lon="8.98417">
 <name>LFKF/WAF</name>
</wpt>
<wpt lat="41.49560" lon="8.92889">
 <name>LFKF/WF</name>
</wpt>
<wpt lat="43.51170" lon="1.38750">
 <name>LFBF/SEA</name>
</wpt>
<wpt lat="43.43330" lon="1.44250">
 <name>LFBF/SE</name>
</wpt>
<wpt lat="44.42080" lon="6.02028">
 <name>LFNA/S1</name>
</wpt>
<wpt lat="44.47940" lon="6.08333">
 <name>LFNA/E1</name>
</wpt>
<wpt lat="44.38030" lon="5.94556">
 <name>LFNA/S</name>
</wpt>
<wpt lat="44.46780" lon="6.16778">
 <name>LFNA/E</name>
</wpt>
<wpt lat="44.54080" lon="6.03528">
 <name>LFNA/N</name>
</wpt>
<wpt lat="45.46890" lon="5.29750">
 <name>LFLS/N</name>
</wpt>
<wpt lat="45.25170" lon="5.24639">
 <name>LFLS/S</name>
</wpt>
<wpt lat="45.47190" lon="5.55583">
 <name>LFLS/NE</name>
</wpt>
<wpt lat="45.30970" lon="5.61750">
 <name>LFLS/SE</name>
</wpt>
<wpt lat="45.32390" lon="5.05361">
 <name>LFLS/W</name>
</wpt>
<wpt lat="45.44500" lon="5.03250">
 <name>LFLS/NW</name>
</wpt>
<wpt lat="47.77920" lon="7.40694">
 <name>LFGB/NH</name>
</wpt>
<wpt lat="47.73060" lon="7.35000">
 <name>LFGB/WH</name>
</wpt>
<wpt lat="47.77920" lon="7.49167">
 <name>LFGB/EH</name>
</wpt>
<wpt lat="47.69440" lon="7.35833">
 <name>LFGB/SH</name>
</wpt>
<wpt lat="43.14420" lon="5.60444">
 <name>LFTH/WT</name>
</wpt>
<wpt lat="43.11030" lon="6.29472">
 <name>LFTH/CL</name>
</wpt>
<wpt lat="43.16140" lon="6.61806">
 <name>LFTH/ET</name>
</wpt>
<wpt lat="43.04170" lon="5.81667">
 <name>LFTH/PT</name>
</wpt>
<wpt lat="43.15780" lon="6.18361">
 <name>LFTH/DG</name>
</wpt>
<wpt lat="43.18720" lon="5.90111">
 <name>LFTH/MC</name>
</wpt>
<wpt lat="43.16280" lon="6.11583">
 <name>LFTH/MR</name>
</wpt>
<wpt lat="43.07060" lon="6.02167">
 <name>LFTH/PC</name>
</wpt>
<wpt lat="43.01330" lon="6.21639">
 <name>LFTH/ST</name>
</wpt>
<wpt lat="43.19170" lon="6.28028">
 <name>LFTH/VC</name>
</wpt>
<wpt lat="43.21060" lon="5.30194">
 <name>LFMI/SC</name>
</wpt>
<wpt lat="43.57080" lon="4.96250">
 <name>LFMI/NE</name>
</wpt>
<wpt lat="43.33000" lon="5.04472">
 <name>LFMI/SW</name>
</wpt>
<wpt lat="43.33060" lon="5.15528">
 <name>LFMI/S</name>
</wpt>
<wpt lat="43.63890" lon="4.91667">
 <name>LFMI/N5</name>
</wpt>
<wpt lat="43.40000" lon="5.04167">
 <name>LFMI/W2</name>
</wpt>
<wpt lat="43.55280" lon="4.71667">
 <name>LFMI/NW1</name>
</wpt>
<wpt lat="43.40310" lon="4.79639">
 <name>LFMI/WB</name>
</wpt>
<wpt lat="43.43970" lon="4.42306">
 <name>LFMI/WA</name>
</wpt>
<wpt lat="43.45000" lon="5.01667">
 <name>LFMI/S3</name>
</wpt>
<wpt lat="43.63610" lon="4.74861">
 <name>LFMI/NW</name>
</wpt>
<wpt lat="43.47220" lon="4.80000">
 <name>LFMI/W3</name>
</wpt>
<wpt lat="43.57500" lon="4.88333">
 <name>LFMI/N4</name>
</wpt>
<wpt lat="43.45280" lon="4.96667">
 <name>LFMI/S4</name>
</wpt>
<wpt lat="45.07170" lon="6.10500">
 <name>LFHU/S</name>
</wpt>
<wpt lat="45.07920" lon="6.12500">
 <name>LFHU/E</name>
</wpt>
<wpt lat="45.07500" lon="6.02222">
 <name>LFHU/W</name>
</wpt>
<wpt lat="45.04390" lon="6.14167">
 <name>LFHU/SE</name>
</wpt>
<wpt lat="43.16140" lon="6.61806">
 <name>LFTZ/ET</name>
</wpt>
<wpt lat="43.16470" lon="6.52500">
 <name>LFTZ/E</name>
</wpt>
<wpt lat="43.26390" lon="6.59278">
 <name>LFTZ/EM</name>
</wpt>
<wpt lat="44.46190" lon="5.36528">
 <name>LFJE/S</name>
</wpt>
<wpt lat="44.51390" lon="5.35056">
 <name>LFJE/NW</name>
</wpt>
<wpt lat="46.29500" lon="-1.10639">
 <name>LFBH/N</name>
</wpt>
<wpt lat="46.07560" lon="-1.07667">
 <name>LFBH/S</name>
</wpt>
<wpt lat="46.23440" lon="-1.15972">
 <name>LFBH/NA</name>
</wpt>
<wpt lat="46.20500" lon="-1.10222">
 <name>LFBH/EA</name>
</wpt>
<wpt lat="46.20250" lon="-1.02778">
 <name>LFBH/E</name>
</wpt>
<wpt lat="46.12140" lon="-1.11000">
 <name>LFBH/SA</name>
</wpt>
<wpt lat="48.64140" lon="-4.30278">
 <name>LFRJ/NWL</name>
</wpt>
<wpt lat="48.49580" lon="-4.05833">
 <name>LFRJ/SEL</name>
</wpt>
<wpt lat="48.49170" lon="-4.15694">
 <name>LFRJ/SL</name>
</wpt>
<wpt lat="48.67920" lon="-3.99306">
 <name>LFRJ/NEL</name>
</wpt>
<wpt lat="48.51670" lon="-3.95500">
 <name>LFRJ/EL</name>
</wpt>
<wpt lat="48.59810" lon="-4.14194">
 <name>LFRJ/NL</name>
</wpt>
<wpt lat="48.71690" lon="-3.50528">
 <name>LFRO/S</name>
</wpt>
<wpt lat="48.71690" lon="-3.50528">
 <name>LFRO/OL</name>
</wpt>
<wpt lat="48.79560" lon="-3.44306">
 <name>LFRO/OP</name>
</wpt>
<wpt lat="48.89860" lon="2.55722">
 <name>LFPB/E1</name>
</wpt>
<wpt lat="48.93220" lon="2.48083">
 <name>LFPB/E2</name>
</wpt>
<wpt lat="48.97420" lon="2.36583">
 <name>LFPB/W2</name>
</wpt>
<wpt lat="49.00140" lon="2.18500">
 <name>LFPB/W1</name>
</wpt>
<wpt lat="49.56470" lon="0.34222">
 <name>LFOH/EH</name>
</wpt>
<wpt lat="49.70000" lon="0.21389">
 <name>LFOH/NH</name>
</wpt>
<wpt lat="43.46670" lon="6.38833">
 <name>LFMC/NL</name>
</wpt>
<wpt lat="43.42080" lon="6.38333">
 <name>LFMC/NC</name>
</wpt>
<wpt lat="43.55830" lon="6.46139">
 <name>LFMC/DG</name>
</wpt>
<wpt lat="43.31810" lon="6.29861">
 <name>LFMC/SW</name>
</wpt>
<wpt lat="43.31670" lon="6.47222">
 <name>LFMC/SE</name>
</wpt>
<wpt lat="43.46170" lon="6.48889">
 <name>LFMC/NE</name>
</wpt>
<wpt lat="43.64640" lon="6.06361">
 <name>LFMC/MY</name>
</wpt>
<wpt lat="43.46670" lon="6.31250">
 <name>LFMC/NW</name>
</wpt>
<wpt lat="43.52220" lon="5.70306">
 <name>LFMC/PL</name>
</wpt>
<wpt lat="43.56060" lon="6.01028">
 <name>LFMC/BJ</name>
</wpt>
<wpt lat="43.33940" lon="6.12083">
 <name>LFMC/SA</name>
</wpt>
<wpt lat="43.40810" lon="5.91861">
 <name>LFMC/TV</name>
</wpt>
<wpt lat="43.19170" lon="6.28028">
 <name>LFMC/VC</name>
</wpt>
<wpt lat="50.43890" lon="1.83944">
 <name>LFAT/E</name>
</wpt>
<wpt lat="50.49310" lon="1.71389">
 <name>LFAT/EA</name>
</wpt>
<wpt lat="50.57920" lon="1.57722">
 <name>LFAT/NB</name>
</wpt>
<wpt lat="50.74030" lon="1.56750">
 <name>LFAT/N</name>
</wpt>
<wpt lat="50.63470" lon="1.57694">
 <name>LFAT/NA</name>
</wpt>
<wpt lat="50.41940" lon="1.65000">
 <name>LFAT/S</name>
</wpt>
<wpt lat="42.42560" lon="1.99583">
 <name>LFYS/SW</name>
</wpt>
<wpt lat="42.44610" lon="2.05000">
 <name>LFYS/E</name>
</wpt>
<wpt lat="42.47080" lon="2.03250">
 <name>LFYS/N</name>
</wpt>
<wpt lat="42.45080" lon="1.95528">
 <name>LFYS/W</name>
</wpt>
<wpt lat="49.24170" lon="-1.63306">
 <name>LFOMSG</name>
</wpt>
<wpt lat="50.51780" lon="3.12389">
 <name>LFQQ/SA</name>
</wpt>
<wpt lat="50.47110" lon="3.22778">
 <name>LFQQ/SE</name>
</wpt>
<wpt lat="50.64530" lon="2.92917">
 <name>LFQQ/N</name>
</wpt>
<wpt lat="50.45720" lon="2.97139">
 <name>LFQQ/SW</name>
</wpt>
<wpt lat="50.52280" lon="2.79306">
 <name>LFQQ/W</name>
</wpt>
<wpt lat="50.60310" lon="3.11333">
 <name>LFQQ/NG</name>
</wpt>
<wpt lat="45.76670" lon="1.23944">
 <name>LFBL/SA</name>
</wpt>
<wpt lat="45.86670" lon="1.08333">
 <name>LFBL/WA</name>
</wpt>
<wpt lat="45.89500" lon="1.29389">
 <name>LFBL/EA</name>
</wpt>
<wpt lat="45.93330" lon="1.03333">
 <name>LFBL/NW</name>
</wpt>
<wpt lat="45.88330" lon="1.40000">
 <name>LFBL/E</name>
</wpt>
<wpt lat="45.88330" lon="1.01667">
 <name>LFBL/W</name>
</wpt>
<wpt lat="45.75560" lon="1.27778">
 <name>LFBL/S</name>
</wpt>
<wpt lat="48.83000" lon="2.70611">
 <name>LFPL/E</name>
</wpt>
<wpt lat="47.71940" lon="-3.34722">
 <name>LFRH/EL</name>
</wpt>
<wpt lat="47.68280" lon="-3.02333">
 <name>LFRH/A</name>
</wpt>
<wpt lat="47.83000" lon="-3.33750">
 <name>LFRH/NL</name>
</wpt>
<wpt lat="47.91670" lon="-3.34722">
 <name>LFRH/N</name>
</wpt>
<wpt lat="47.80000" lon="-3.58333">
 <name>LFRH/WL</name>
</wpt>
<wpt lat="47.80580" lon="-3.45917">
 <name>LFRH/NG</name>
</wpt>
<wpt lat="47.85830" lon="-3.75000">
 <name>LFRH/W</name>
</wpt>
<wpt lat="47.67640" lon="-3.20000">
 <name>LFRH/E</name>
</wpt>
<wpt lat="47.64440" lon="-3.45000">
 <name>LFRH/S</name>
</wpt>
<wpt lat="47.86530" lon="-3.54167">
 <name>LFRH/NW</name>
</wpt>
<wpt lat="47.69720" lon="-3.45000">
 <name>LFRH/SL</name>
</wpt>
<wpt lat="48.00280" lon="6.26667">
 <name>LFSX/WN</name>
</wpt>
<wpt lat="47.75640" lon="6.34694">
 <name>LFSX/S1</name>
</wpt>
<wpt lat="47.76670" lon="6.10417">
 <name>LFSX/W</name>
</wpt>
<wpt lat="47.65560" lon="6.55417">
 <name>LFSX/SE</name>
</wpt>
<wpt lat="47.82970" lon="6.37722">
 <name>LFSX/N1</name>
</wpt>
<wpt lat="47.66390" lon="6.35278">
 <name>LFSX/SP</name>
</wpt>
<wpt lat="47.68890" lon="6.04722">
 <name>LFSX/WS</name>
</wpt>
<wpt lat="47.69440" lon="6.28056">
 <name>LFSX/S</name>
</wpt>
<wpt lat="47.88750" lon="6.38750">
 <name>LFSX/N</name>
</wpt>
<wpt lat="45.84500" lon="4.83333">
 <name>LFLY/NW</name>
</wpt>
<wpt lat="45.58970" lon="4.79667">
 <name>LFLY/S</name>
</wpt>
<wpt lat="45.89190" lon="4.80111">
 <name>LFLY/N</name>
</wpt>
<wpt lat="45.64970" lon="4.84056">
 <name>LFLY/SA</name>
</wpt>
<wpt lat="45.85690" lon="4.91333">
 <name>LFLY/NA</name>
</wpt>
<wpt lat="45.72330" lon="5.02333">
 <name>LFLY/MS</name>
</wpt>
<wpt lat="45.58970" lon="4.79667">
 <name>LFLL/S</name>
</wpt>
<wpt lat="45.89190" lon="4.80111">
 <name>LFLL/N</name>
</wpt>
<wpt lat="45.85690" lon="4.91333">
 <name>LFLL/NA</name>
</wpt>
<wpt lat="45.84170" lon="4.83333">
 <name>LFLL/NW</name>
</wpt>
<wpt lat="45.72330" lon="5.02333">
 <name>LFLL/MS</name>
</wpt>
<wpt lat="45.72310" lon="5.22972">
 <name>LFLL/EA</name>
</wpt>
<wpt lat="45.71690" lon="5.07056">
 <name>LFLL/TW</name>
</wpt>
<wpt lat="45.72920" lon="5.15389">
 <name>LFLL/MC</name>
</wpt>
<wpt lat="45.72500" lon="5.11500">
 <name>LFLL/TE</name>
</wpt>
<wpt lat="45.64970" lon="4.84056">
 <name>LFLL/SA</name>
</wpt>
<wpt lat="43.21280" lon="5.33333">
 <name>LFML/SE</name>
</wpt>
<wpt lat="43.41060" lon="5.32472">
 <name>LFML/EB</name>
</wpt>
<wpt lat="43.33110" lon="5.04472">
 <name>LFML/SW</name>
</wpt>
<wpt lat="43.33080" lon="5.15583">
 <name>LFML/S</name>
</wpt>
<wpt lat="43.43190" lon="5.38444">
 <name>LFML/EA</name>
</wpt>
<wpt lat="43.38390" lon="5.18528">
 <name>LFML/SA</name>
</wpt>
<wpt lat="43.47140" lon="5.24250">
 <name>LFML/NB</name>
</wpt>
<wpt lat="43.62080" lon="5.29694">
 <name>LFML/N</name>
</wpt>
<wpt lat="43.44000" lon="5.45167">
 <name>LFML/E</name>
</wpt>
<wpt lat="43.52360" lon="5.25722">
 <name>LFML/NA</name>
</wpt>
<wpt lat="45.84440" lon="6.62083">
 <name>LFHM/N</name>
</wpt>
<wpt lat="48.57140" lon="2.46889">
 <name>LFPM/B</name>
</wpt>
<wpt lat="48.48670" lon="2.70194">
 <name>LFPM/SM</name>
</wpt>
<wpt lat="48.69420" lon="2.72056">
 <name>LFPM/N</name>
</wpt>
<wpt lat="45.48330" lon="6.53333">
 <name>LFKX/MOU</name>
</wpt>
<wpt lat="50.77530" lon="2.56389">
 <name>LFQT/N</name>
</wpt>
<wpt lat="50.64080" lon="2.74500">
 <name>LFQT/EA</name>
</wpt>
<wpt lat="50.68330" lon="2.57083">
 <name>LFQT/NA</name>
</wpt>
<wpt lat="50.43530" lon="2.70417">
 <name>LFQT/S</name>
</wpt>
<wpt lat="50.68390" lon="2.84333">
 <name>LFQT/NE</name>
</wpt>
<wpt lat="50.57530" lon="2.77500">
 <name>LFQT/EB</name>
</wpt>
<wpt lat="50.54110" lon="2.65056">
 <name>LFQT/SA</name>
</wpt>
<wpt lat="50.62640" lon="2.55111">
 <name>LFQT/WA</name>
</wpt>
<wpt lat="50.64610" lon="2.40806">
 <name>LFQT/W</name>
</wpt>
<wpt lat="49.07810" lon="6.07417">
 <name>LFSF/NW</name>
</wpt>
<wpt lat="49.29580" lon="6.34306">
 <name>LFSF/N2</name>
</wpt>
<wpt lat="49.09890" lon="5.88889">
 <name>LFSF/W</name>
</wpt>
<wpt lat="49.07580" lon="6.22333">
 <name>LFSF/NE</name>
</wpt>
<wpt lat="48.88360" lon="6.06139">
 <name>LFSF/SW</name>
</wpt>
<wpt lat="49.00670" lon="6.20556">
 <name>LFSF/M</name>
</wpt>
<wpt lat="49.19860" lon="6.27917">
 <name>LFSF/N1</name>
</wpt>
<wpt lat="49.21530" lon="6.16389">
 <name>LFSF/MLM</name>
</wpt>
<wpt lat="48.74170" lon="6.35139">
 <name>LFJL/S</name>
</wpt>
<wpt lat="48.84720" lon="6.45417">
 <name>LFJL/SE</name>
</wpt>
<wpt lat="48.99000" lon="6.43528">
 <name>LFJL/E</name>
</wpt>
<wpt lat="48.88360" lon="6.06139">
 <name>LFJL/SW</name>
</wpt>
<wpt lat="49.00670" lon="6.20556">
 <name>LFJL/M</name>
</wpt>
<wpt lat="49.19310" lon="6.00000">
 <name>LFSF/SMC</name>
</wpt>
<wpt lat="43.99280" lon="-0.53528">
 <name>LFBM/N</name>
</wpt>
<wpt lat="44.04610" lon="-0.65028">
 <name>LFBM/NW</name>
</wpt>
<wpt lat="43.94170" lon="-0.40750">
 <name>LFBM/E</name>
</wpt>
<wpt lat="43.86390" lon="-0.70833">
 <name>LFBM/SW1</name>
</wpt>
<wpt lat="43.88940" lon="-0.44444">
 <name>LFBM/SE</name>
</wpt>
<wpt lat="44.03420" lon="-0.32333">
 <name>LFBM/NE</name>
</wpt>
<wpt lat="43.83580" lon="-0.30028">
 <name>LFBM/SE1</name>
</wpt>
<wpt lat="43.86560" lon="-0.59056">
 <name>LFBM/SW</name>
</wpt>
<wpt lat="43.46030" lon="4.23250">
 <name>LFMT/SA</name>
</wpt>
<wpt lat="43.51250" lon="3.88361">
 <name>LFMT/SW</name>
</wpt>
<wpt lat="43.68000" lon="3.98083">
 <name>LFMT/NE</name>
</wpt>
<wpt lat="43.62530" lon="4.00389">
 <name>LFMT/NC</name>
</wpt>
<wpt lat="43.67420" lon="3.81944">
 <name>LFMT/NW</name>
</wpt>
<wpt lat="43.57860" lon="4.10083">
 <name>LFMT/GM</name>
</wpt>
<wpt lat="43.79140" lon="4.09028">
 <name>LFMT/N</name>
</wpt>
<wpt lat="43.72690" lon="4.18278">
 <name>LFMT/PG</name>
</wpt>
<wpt lat="43.56220" lon="3.83056">
 <name>LFMT/W</name>
</wpt>
<wpt lat="43.46610" lon="3.81528">
 <name>LFMT/SF</name>
</wpt>
<wpt lat="43.56360" lon="4.19278">
 <name>LFMT/AM</name>
</wpt>
<wpt lat="43.43970" lon="4.42306">
 <name>LFMT/WA</name>
</wpt>
<wpt lat="43.48280" lon="4.14194">
 <name>LFMT/ES</name>
</wpt>
<wpt lat="43.40000" lon="1.44167">
 <name>LFBR/SA</name>
</wpt>
<wpt lat="43.35830" lon="1.27500">
 <name>LFBR/SN</name>
</wpt>
<wpt lat="48.83750" lon="6.06889">
 <name>LFSO/N</name>
</wpt>
<wpt lat="48.76390" lon="6.13056">
 <name>LFSO/E</name>
</wpt>
<wpt lat="48.68330" lon="5.90000">
 <name>LFSO/S</name>
</wpt>
<wpt lat="48.68330" lon="5.61667">
 <name>LFSO/W</name>
</wpt>
<wpt lat="47.04330" lon="-1.95250">
 <name>LFRS/W3</name>
</wpt>
<wpt lat="47.15220" lon="-1.39056">
 <name>LFRS/NE</name>
</wpt>
<wpt lat="47.08390" lon="-1.26889">
 <name>LFRS/E2</name>
</wpt>
<wpt lat="47.29170" lon="-1.87806">
 <name>LFRS/W2</name>
</wpt>
<wpt lat="47.20720" lon="-1.78639">
 <name>LFRS/W</name>
</wpt>
<wpt lat="47.44060" lon="-1.50000">
 <name>LFRS/W1</name>
</wpt>
<wpt lat="47.09640" lon="-1.44917">
 <name>LFRS/E</name>
</wpt>
<wpt lat="47.37220" lon="-1.02111">
 <name>LFRS/E1</name>
</wpt>
<wpt lat="47.10780" lon="-1.78861">
 <name>LFRS/SW</name>
</wpt>
<wpt lat="47.25720" lon="-1.68528">
 <name>LFRS/NW</name>
</wpt>
<wpt lat="46.83810" lon="-1.41722">
 <name>LFRS/E3</name>
</wpt>
<wpt lat="47.10780" lon="-1.78861">
 <name>LFRS/W4</name>
</wpt>
<wpt lat="43.53530" lon="7.14500">
 <name>LFMN/SB</name>
</wpt>
<wpt lat="43.48890" lon="7.04694">
 <name>LFMN/SA</name>
</wpt>
<wpt lat="43.75000" lon="7.51111">
 <name>LFMN/E</name>
</wpt>
<wpt lat="43.75000" lon="7.18889">
 <name>LFMN/NA</name>
</wpt>
<wpt lat="43.66690" lon="7.14556">
 <name>LFMN/WA</name>
</wpt>
<wpt lat="43.63860" lon="7.30250">
 <name>LFMN/TE</name>
</wpt>
<wpt lat="43.58360" lon="7.22000">
 <name>LFMN/TS</name>
</wpt>
<wpt lat="43.66000" lon="6.98000">
 <name>LFMN/EW</name>
</wpt>
<wpt lat="43.70000" lon="7.18806">
 <name>LFMN/NB</name>
</wpt>
<wpt lat="43.66830" lon="7.19722">
 <name>LFMN/WN</name>
</wpt>
<wpt lat="43.70720" lon="7.42528">
 <name>LFMN/EC</name>
</wpt>
<wpt lat="43.65470" lon="7.34556">
 <name>LFMN/EA</name>
</wpt>
<wpt lat="43.68190" lon="4.21389">
 <name>LFME/AS</name>
</wpt>
<wpt lat="43.83030" lon="4.63333">
 <name>LFME/BC</name>
</wpt>
<wpt lat="43.95310" lon="4.42389">
 <name>LFME/SN</name>
</wpt>
<wpt lat="43.77940" lon="4.19472">
 <name>LFME/CA</name>
</wpt>
<wpt lat="43.75330" lon="4.51444">
 <name>LFTW/BG</name>
</wpt>
<wpt lat="43.61920" lon="4.25944">
 <name>LFTW/ET</name>
</wpt>
<wpt lat="43.83030" lon="4.63333">
 <name>LFTW/BC</name>
</wpt>
<wpt lat="43.83140" lon="4.49722">
 <name>LFTW/RD</name>
</wpt>
<wpt lat="43.81530" lon="4.32861">
 <name>LFTW/CZ</name>
</wpt>
<wpt lat="43.77940" lon="4.19472">
 <name>LFTW/CA</name>
</wpt>
<wpt lat="43.75610" lon="4.26750">
 <name>LFTW/UH</name>
</wpt>
<wpt lat="43.66640" lon="4.58750">
 <name>LFTW/AL</name>
</wpt>
<wpt lat="43.68190" lon="4.21389">
 <name>LFTW/AS</name>
</wpt>
<wpt lat="43.95310" lon="4.42389">
 <name>LFTW/SN</name>
</wpt>
<wpt lat="44.37360" lon="4.63972">
 <name>LFMO/NW</name>
</wpt>
<wpt lat="44.10420" lon="4.75972">
 <name>LFMO/WA</name>
</wpt>
<wpt lat="44.06690" lon="5.03722">
 <name>LFMO/SE</name>
</wpt>
<wpt lat="44.24190" lon="4.71194">
 <name>LFMO/WB</name>
</wpt>
<wpt lat="44.06940" lon="4.76583">
 <name>LFMO/SW</name>
</wpt>
<wpt lat="44.17890" lon="4.91889">
 <name>LFMO/E</name>
</wpt>
<wpt lat="44.28390" lon="4.92694">
 <name>LFMO/NE</name>
</wpt>
<wpt lat="47.81940" lon="1.64167">
 <name>LFOJ/S</name>
</wpt>
<wpt lat="47.90280" lon="1.84722">
 <name>LFOJ/SE</name>
</wpt>
<wpt lat="48.10190" lon="1.88333">
 <name>LFOJ/N</name>
</wpt>
<wpt lat="47.95000" lon="1.84889">
 <name>LFOJ/E</name>
</wpt>
<wpt lat="48.04720" lon="1.70417">
 <name>LFOJ/NW</name>
</wpt>
<wpt lat="48.70000" lon="2.60306">
 <name>LFPO/BCR</name>
</wpt>
<wpt lat="48.87500" lon="2.64306">
 <name>LFPO/VAI</name>
</wpt>
<wpt lat="43.29860" lon="-0.48667">
 <name>LFBP/S</name>
</wpt>
<wpt lat="43.49470" lon="-0.37000">
 <name>LFBP/N</name>
</wpt>
<wpt lat="43.46000" lon="-0.32278">
 <name>LFBP/NE</name>
</wpt>
<wpt lat="43.32110" lon="-0.57778">
 <name>LFBP/SW</name>
</wpt>
<wpt lat="43.42000" lon="-0.34611">
 <name>LFBP/NA</name>
</wpt>
<wpt lat="43.33670" lon="-0.46056">
 <name>LFBP/SA</name>
</wpt>
<wpt lat="43.27890" lon="-0.38778">
 <name>LFBP/SE</name>
</wpt>
<wpt lat="43.41500" lon="-0.57556">
 <name>LFBP/W</name>
</wpt>
<wpt lat="42.60830" lon="2.86056">
 <name>LFMP/MS</name>
</wpt>
<wpt lat="42.77890" lon="3.03861">
 <name>LFMP/E</name>
</wpt>
<wpt lat="42.70310" lon="3.03750">
 <name>LFMP/SE</name>
</wpt>
<wpt lat="42.61970" lon="3.03917">
 <name>LFMP/PC</name>
</wpt>
<wpt lat="42.91030" lon="3.05583">
 <name>LFMP/NL</name>
</wpt>
<wpt lat="42.68190" lon="2.75917">
 <name>LFMP/WS</name>
</wpt>
<wpt lat="42.76390" lon="2.98694">
 <name>LFMP/EA</name>
</wpt>
<wpt lat="42.87670" lon="3.05583">
 <name>LFMP/NF</name>
</wpt>
<wpt lat="42.80280" lon="0.46528">
 <name>LFIP/E</name>
</wpt>
<wpt lat="42.90140" lon="0.37083">
 <name>LFIP/N1</name>
</wpt>
<wpt lat="42.78610" lon="0.41111">
 <name>LFIP/S</name>
</wpt>
<wpt lat="42.81190" lon="0.40778">
 <name>LFIP/N2</name>
</wpt>
<wpt lat="48.86220" lon="7.45056">
 <name>LFQP/NE</name>
</wpt>
<wpt lat="48.69000" lon="7.13417">
 <name>LFQP/SW</name>
</wpt>
<wpt lat="48.81000" lon="7.16528">
 <name>LFQP/NC</name>
</wpt>
<wpt lat="48.76470" lon="7.06694">
 <name>LFQP/W</name>
</wpt>
<wpt lat="48.86330" lon="7.18111">
 <name>LFQP/N</name>
</wpt>
<wpt lat="48.80030" lon="7.40444">
 <name>LFQP/E</name>
</wpt>
<wpt lat="48.71170" lon="7.21639">
 <name>LFQP/S</name>
</wpt>
<wpt lat="48.71810" lon="7.33250">
 <name>LFQP/SE</name>
</wpt>
<wpt lat="46.44860" lon="0.26944">
 <name>LFBI/S</name>
</wpt>
<wpt lat="46.59170" lon="0.39444">
 <name>LFBI/EA</name>
</wpt>
<wpt lat="46.54670" lon="0.33556">
 <name>LFBI/S1</name>
</wpt>
<wpt lat="46.69470" lon="0.25194">
 <name>LFBI/N</name>
</wpt>
<wpt lat="46.62860" lon="0.26417">
 <name>LFBI/WA</name>
</wpt>
<wpt lat="46.55890" lon="0.50056">
 <name>LFBI/E</name>
</wpt>
<wpt lat="46.64670" lon="0.17028">
 <name>LFBI/W</name>
</wpt>
<wpt lat="49.14750" lon="1.89917">
 <name>LFPT/NW</name>
</wpt>
<wpt lat="49.07830" lon="2.10722">
 <name>LFPT/E</name>
</wpt>
<wpt lat="48.97060" lon="1.79611">
 <name>LFPT/SW</name>
</wpt>
<wpt lat="48.04310" lon="-4.20417">
 <name>LFRQ/NW</name>
</wpt>
<wpt lat="48.00440" lon="-4.16111">
 <name>LFRQ/N</name>
</wpt>
<wpt lat="47.93970" lon="-4.17806">
 <name>LFRQ/S</name>
</wpt>
<wpt lat="47.86970" lon="-4.22194">
 <name>LFRQ/SW</name>
</wpt>
<wpt lat="47.95560" lon="-4.35833">
 <name>LFRQ/W</name>
</wpt>
<wpt lat="47.88750" lon="-4.11806">
 <name>LFRQ/SE</name>
</wpt>
<wpt lat="48.04000" lon="-4.06917">
 <name>LFRQ/NE</name>
</wpt>
<wpt lat="48.18560" lon="-1.65028">
 <name>LFRN/NE</name>
</wpt>
<wpt lat="48.02310" lon="-1.74389">
 <name>LFRN/S</name>
</wpt>
<wpt lat="48.11670" lon="-1.56667">
 <name>LFRN/E</name>
</wpt>
<wpt lat="47.98190" lon="-1.58444">
 <name>LFRN/SE</name>
</wpt>
<wpt lat="47.96970" lon="-1.79528">
 <name>LFRN/SW</name>
</wpt>
<wpt lat="48.15780" lon="-1.83083">
 <name>LFRN/NW</name>
</wpt>
<wpt lat="48.12500" lon="-1.75833">
 <name>LFRN/N</name>
</wpt>
<wpt lat="43.36810" lon="1.74750">
 <name>LFHREN/ER</name>
</wpt>
<wpt lat="43.38470" lon="1.70472">
 <name>LFHREN/NA</name>
</wpt>
<wpt lat="43.35940" lon="1.72917">
 <name>LFHREN/SA</name>
</wpt>
<wpt lat="43.34890" lon="1.65306">
 <name>LFHREN/WR</name>
</wpt>
<wpt lat="43.33060" lon="1.79083">
 <name>LFHREN/SR</name>
</wpt>
<wpt lat="43.35670" lon="1.71000">
 <name>LFHREN/WA</name>
</wpt>
<wpt lat="43.39890" lon="1.69694">
 <name>LFHREN/NR</name>
</wpt>
<wpt lat="43.36470" lon="1.72778">
 <name>LFHREN/SB</name>
</wpt>
<wpt lat="43.37030" lon="1.68750">
 <name>LFHREN/WB</name>
</wpt>
<wpt lat="44.27780" lon="2.42778">
 <name>LFCR/S</name>
</wpt>
<wpt lat="44.47170" lon="2.72278">
 <name>LFCR/N</name>
</wpt>
<wpt lat="44.38080" lon="2.29750">
 <name>LFCR/W</name>
</wpt>
<wpt lat="44.40750" lon="2.74194">
 <name>LFCR/E</name>
</wpt>
<wpt lat="44.34440" lon="2.44111">
 <name>LFCR/SA</name>
</wpt>
<wpt lat="44.40810" lon="2.60417">
 <name>LFCR/EA</name>
</wpt>
<wpt lat="49.54830" lon="0.95361">
 <name>LFOP/NW</name>
</wpt>
<wpt lat="49.75780" lon="1.48694">
 <name>LFOP/NL</name>
</wpt>
<wpt lat="49.31670" lon="1.24722">
 <name>LFOP/S</name>
</wpt>
<wpt lat="49.35860" lon="1.35889">
 <name>LFOP/E</name>
</wpt>
<wpt lat="49.49280" lon="1.15944">
 <name>LFOP/N</name>
</wpt>
<wpt lat="49.31000" lon="0.99889">
 <name>LFOP/W</name>
</wpt>
<wpt lat="45.47190" lon="4.51611">
 <name>LFHSTC/SE</name>
</wpt>
<wpt lat="45.55750" lon="4.12583">
 <name>LFMH/W</name>
</wpt>
<wpt lat="45.73940" lon="4.22139">
 <name>LFMH/N</name>
</wpt>
<wpt lat="45.64420" lon="4.23139">
 <name>LFMH/NA</name>
</wpt>
<wpt lat="45.39280" lon="4.29167">
 <name>LFMH/S</name>
</wpt>
<wpt lat="45.47310" lon="4.51833">
 <name>LFMH/SE</name>
</wpt>
<wpt lat="45.63250" lon="4.45389">
 <name>LFMH/NE</name>
</wpt>
<wpt lat="47.44640" lon="-2.09028">
 <name>LFRZ/N</name>
</wpt>
<wpt lat="47.44970" lon="-2.31694">
 <name>LFRZ/NW</name>
</wpt>
<wpt lat="47.28560" lon="-2.25111">
 <name>LFRZ/W1</name>
</wpt>
<wpt lat="47.28170" lon="-2.02833">
 <name>LFRZ/E</name>
</wpt>
<wpt lat="47.23420" lon="-2.29861">
 <name>LFRZ/W</name>
</wpt>
<wpt lat="46.43390" lon="4.27500">
 <name>LFLN/E</name>
</wpt>
<wpt lat="46.58190" lon="4.23944">
 <name>LFLN/NE</name>
</wpt>
<wpt lat="46.20310" lon="4.07778">
 <name>LFLN/S</name>
</wpt>
<wpt lat="46.35060" lon="3.79389">
 <name>LFLN/W</name>
</wpt>
<wpt lat="46.40690" lon="3.90083">
 <name>LFLN/WA</name>
</wpt>
<wpt lat="46.44000" lon="4.14083">
 <name>LFLN/EA</name>
</wpt>
<wpt lat="46.50670" lon="3.81611">
 <name>LFLN/NW</name>
</wpt>
<wpt lat="46.33470" lon="3.96278">
 <name>LFLN/SA</name>
</wpt>
<wpt lat="43.73670" lon="5.19167">
 <name>LFMY/ME</name>
</wpt>
<wpt lat="43.62860" lon="5.04056">
 <name>LFMY/W</name>
</wpt>
<wpt lat="43.73170" lon="5.24167">
 <name>LFMY/CH</name>
</wpt>
<wpt lat="43.70060" lon="5.10167">
 <name>LFMY/LA</name>
</wpt>
<wpt lat="43.71970" lon="5.02444">
 <name>LFMY/EG</name>
</wpt>
<wpt lat="43.74060" lon="5.09111">
 <name>LFMY/PS</name>
</wpt>
<wpt lat="43.81080" lon="5.04222">
 <name>LFMY/CV</name>
</wpt>
<wpt lat="43.55500" lon="5.08833">
 <name>LFMY/SW</name>
</wpt>
<wpt lat="43.62080" lon="5.29694">
 <name>LFMY/N</name>
</wpt>
<wpt lat="48.70970" lon="2.11028">
 <name>LFPN/S</name>
</wpt>
<wpt lat="41.71640" lon="9.40194">
 <name>LFKS/AS</name>
</wpt>
<wpt lat="42.03560" lon="9.40028">
 <name>LFKS/AW</name>
</wpt>
<wpt lat="48.72500" lon="4.77278">
 <name>LFSI/N1</name>
</wpt>
<wpt lat="48.73580" lon="4.90250">
 <name>LFSI/N</name>
</wpt>
<wpt lat="48.66970" lon="4.73583">
 <name>LFSI/N2</name>
</wpt>
<wpt lat="48.52580" lon="5.10250">
 <name>LFSI/E2</name>
</wpt>
<wpt lat="48.65310" lon="5.18583">
 <name>LFSI/E1</name>
</wpt>
<wpt lat="48.50310" lon="4.95611">
 <name>LFSI/S</name>
</wpt>
<wpt lat="48.79920" lon="1.96583">
 <name>LFPZ/P1</name>
</wpt>
<wpt lat="48.79890" lon="1.99083">
 <name>LFPZ/P2</name>
</wpt>
<wpt lat="48.47690" lon="7.75194">
 <name>LFST/E</name>
</wpt>
<wpt lat="48.68970" lon="7.49889">
 <name>LFST/W</name>
</wpt>
<wpt lat="48.56420" lon="7.60000">
 <name>LFST/WA</name>
</wpt>
<wpt lat="48.52500" lon="7.66528">
 <name>LFST/EA</name>
</wpt>
<wpt lat="48.74830" lon="7.68417">
 <name>LFST/N</name>
</wpt>
<wpt lat="48.56940" lon="7.52806">
 <name>LFST/W1</name>
</wpt>
<wpt lat="48.60280" lon="7.59583">
 <name>LFST/WB</name>
</wpt>
<wpt lat="48.32110" lon="7.48833">
 <name>LFST/S</name>
</wpt>
<wpt lat="48.57360" lon="7.80167">
 <name>LFST/N1</name>
</wpt>
<wpt lat="48.52000" lon="7.49778">
 <name>LFST/W2</name>
</wpt>
<wpt lat="48.50830" lon="7.69667">
 <name>LFST/EB</name>
</wpt>
<wpt lat="48.68390" lon="7.87556">
 <name>LFST/NE</name>
</wpt>
<wpt lat="43.17640" lon="0.08778">
 <name>LFBT/EA</name>
</wpt>
<wpt lat="43.19280" lon="-0.11639">
 <name>LFBT/W</name>
</wpt>
<wpt lat="43.19720" lon="0.19528">
 <name>LFBT/E</name>
</wpt>
<wpt lat="43.14390" lon="6.02500">
 <name>LFHTSA/VS</name>
</wpt>
<wpt lat="43.11560" lon="5.86194">
 <name>LFHTSA/GS</name>
</wpt>
<wpt lat="43.40000" lon="1.44167">
 <name>LFBO/SA</name>
</wpt>
<wpt lat="43.78330" lon="1.35000">
 <name>LFBO/N</name>
</wpt>
<wpt lat="43.64530" lon="1.38333">
 <name>LFBO/EB</name>
</wpt>
<wpt lat="43.74030" lon="1.59167">
 <name>LFBO/EN</name>
</wpt>
<wpt lat="43.60640" lon="1.30694">
 <name>LFBO/WD</name>
</wpt>
<wpt lat="43.70390" lon="1.39194">
 <name>LFBO/NA</name>
</wpt>
<wpt lat="43.48330" lon="1.66667">
 <name>LFBO/SL</name>
</wpt>
<wpt lat="43.64030" lon="1.22806">
 <name>LFBO/WF</name>
</wpt>
<wpt lat="43.56390" lon="1.49750">
 <name>LFCL/AS</name>
</wpt>
<wpt lat="43.69390" lon="1.66139">
 <name>LFCL/AE</name>
</wpt>
<wpt lat="43.54810" lon="1.60833">
 <name>LFCL/DS</name>
</wpt>
<wpt lat="43.53360" lon="1.55278">
 <name>LFCL/PI</name>
</wpt>
<wpt lat="43.65420" lon="1.52472">
 <name>LFCL/DN</name>
</wpt>
<wpt lat="43.35830" lon="1.27500">
 <name>LFBO/SN</name>
</wpt>
<wpt lat="43.65830" lon="1.42528">
 <name>LFBO/EA</name>
</wpt>
<wpt lat="43.68560" lon="1.10278">
 <name>LFBO/WH</name>
</wpt>
<wpt lat="43.44970" lon="1.62917">
 <name>LFBO/SB</name>
</wpt>
<wpt lat="47.26330" lon="0.44556">
 <name>LFOT/SW</name>
</wpt>
<wpt lat="47.57080" lon="0.67000">
 <name>LFOT/N</name>
</wpt>
<wpt lat="47.59030" lon="0.89972">
 <name>LFOT/NE</name>
</wpt>
<wpt lat="47.32970" lon="0.69333">
 <name>LFOT/S1</name>
</wpt>
<wpt lat="47.28190" lon="0.78472">
 <name>LFOT/S</name>
</wpt>
<wpt lat="47.44030" lon="0.63861">
 <name>LFOT/W</name>
</wpt>
<wpt lat="47.42440" lon="0.83667">
 <name>LFOT/E</name>
</wpt>
<wpt lat="42.87530" lon="8.15889">
 <name>LFKC/MC</name>
</wpt>
<wpt lat="44.77610" lon="4.82639">
 <name>LFLU/S</name>
</wpt>
<wpt lat="44.87390" lon="4.87167">
 <name>LFLU/SA</name>
</wpt>
<wpt lat="44.95560" lon="4.93139">
 <name>LFHVAL/HN</name>
</wpt>
<wpt lat="44.83920" lon="4.89472">
 <name>LFHVAL/HS</name>
</wpt>
<wpt lat="45.02580" lon="5.09694">
 <name>LFLU/NE</name>
</wpt>
<wpt lat="44.99860" lon="4.87667">
 <name>LFLU/NW</name>
</wpt>
<wpt lat="47.81830" lon="-2.80611">
 <name>LFRV/N</name>
</wpt>
<wpt lat="47.61080" lon="-2.61056">
 <name>LFRV/SE</name>
</wpt>
<wpt lat="47.63970" lon="-2.95389">
 <name>LFRV/W</name>
</wpt>
<wpt lat="47.72060" lon="-2.58861">
 <name>LFRV/E</name>
</wpt>
<wpt lat="48.70810" lon="2.16111">
 <name>LFPV/MOU</name>
</wpt>
<wpt lat="48.74030" lon="2.17667">
 <name>LFPV/S1</name>
</wpt>
<wpt lat="48.64190" lon="2.08583">
 <name>LFPV/S</name>
</wpt>
<wpt lat="48.79030" lon="1.99528">
 <name>LFPV/W</name>
</wpt>
<wpt lat="49.07810" lon="6.07417">
 <name>LFJL/NW</name>
</wpt>
<wpt lat="49.07580" lon="6.22333">
 <name>LFJL/NE</name>
</wpt>
<wpt lat="49.19860" lon="6.27917">
 <name>LFJL/N1</name>
</wpt>

</gpx>
